[
	{"city": "Colorado","name":"Avalanche","lat":39.748611, "lon":-105.0075},
	{"city": "Chicago","name":"Blackhawks","lat":41.880556, "lon":-87.674167},	
	{"city": "Columbus","name":"Blue Jackets","lat":39.969283, "lon":-83.006111},
	{"city": "St. Louis","name":"Blues","lat":38.626667, "lon":-90.2025},		
	{"city": "Boston","name":"Bruins","lat":42.366303, "lon":-71.062228},
	{"city": "Montreal","name":"Canadiens","lat":45.496111, "lon":-73.569444},
	{"city": "Vancouver","name":"Canucks","lat":49.277778, "lon":-123.108889},
	{"city": "Washington","name":"Capitals","lat":38.898056, "lon":-77.020833},
	{"city": "Arizona","name":"Coyotes","lat":33.531944, "lon":-112.261111},
	{"city": "New Jersey","name":"Devils","lat":40.733611, "lon":-74.171111},		
	{"city": "Anaheim","name":"Ducks", "lat":33.807778, "lon":-117.876667},
	{"city": "Calgary","name":"Flames","lat":51.0375, "lon":-114.051944},
	{"city": "Philadelphia","name":"Flyers","lat":39.901111, "lon":-75.171944},
	{"city": "Vegas","name":"Golden Knights","lat":36.102778, "lon":-115.178333},
	{"city": "Carolina","name":"Hurricanes","lat":35.803333, "lon":-78.721944},	
	{"city": "New York","name":"Islanders","lat":40.682661, "lon":-73.975225},	
	{"city": "Winnipeg","name":"Jets","lat":49.892778, "lon":-97.143611},
	{"city": "Los Angeles","name":"Kings","lat":34.043056, "lon":-118.267222},
	{"city": "Tampa Bay","name":"Lightning","lat":27.942778, "lon":-82.451944},
	{"city": "Toronto","name":"Maple Leafs","lat":43.643333, "lon":-79.379167},
	{"city": "Edmonton","name":"Oilers","lat":53.546944, "lon":-113.497778},
	{"city": "Florida","name":"Panthers","lat":26.158333, "lon":-80.325556},
	{"city": "Pittsburgh","name":"Penguins","lat":40.439444, "lon":-79.989167},
	{"city": "Nashville","name":"Predators","lat":36.159167, "lon":-86.778611},
	{"city": "New York","name":"Rangers","lat":40.750556, "lon":-73.993611},	
	{"city": "Detroit","name":"Red Wings","lat":42.325278, "lon":-83.051389},
	{"city": "Buffalo","name":"Sabres","lat":42.875, "lon":-78.876389},	
	{"city": "Seattle", "name": "Seattles", "lat":47.622, "lon":-122.354},
	{"city": "Ottawa","name":"Senators","lat":45.296944, "lon":-75.927222},	
	{"city": "San Jose","name":"Sharks","lat":37.332778, "lon":-121.901111},
	{"city": "Dallas","name":"Stars","lat":32.790556, "lon":-96.810278},
	{"city": "Minnesota","name":"Wild","lat":44.944722, "lon":-93.101111}
]